$GPRMC,010000.000,A,3727.3780,N,12637.0020,E,29.5,180.9,290725,,*39
$GPRMC,010001.000,A,3727.3698,N,12637.0018,E,29.5,180.9,290725,,*3B
$GPRMC,010002.000,A,3727.3616,N,12637.0017,E,29.5,180.9,290725,,*31
$GPRMC,010003.000,A,3727.3534,N,12637.0015,E,29.5,180.9,290725,,*31
$GPRMC,010004.000,A,3727.3453,N,12637.0014,E,29.5,180.9,290725,,*37
$GPRMC,010005.000,A,3727.3371,N,12637.0012,E,29.5,180.9,290725,,*37
$GPRMC,010006.000,A,3727.3289,N,12637.0011,E,29.5,181.0,290725,,*39
$GPRMC,010007.000,A,3727.3207,N,12637.0009,E,29.5,181.0,290725,,*37
$GPRMC,010008.000,A,3727.3125,N,12637.0008,E,29.5,181.0,290725,,*3A
$GPRMC,010009.000,A,3727.3043,N,12637.0006,E,29.5,181.0,290725,,*34
$GPRMC,010010.000,A,3727.2961,N,12637.0005,E,29.5,181.0,290725,,*37
$GPRMC,010011.000,A,3727.2880,N,12637.0003,E,29.5,181.0,290725,,*3E
$GPRMC,010012.000,A,3727.2798,N,12637.0002,E,29.5,181.0,290725,,*3A
$GPRMC,010013.000,A,3727.2716,N,12637.0000,E,29.5,181.0,290725,,*3F
$GPRMC,010014.000,A,3727.2634,N,12636.9998,E,29.5,181.0,290725,,*39
$GPRMC,010015.000,A,3727.2552,N,12636.9997,E,29.5,181.0,290725,,*34
$GPRMC,010016.000,A,3727.2470,N,12636.9995,E,29.5,181.1,290725,,*35
$GPRMC,010017.000,A,3727.2388,N,12636.9994,E,29.5,181.1,290725,,*35
$GPRMC,010018.000,A,3727.2307,N,12636.9992,E,29.5,181.1,290725,,*3B
$GPRMC,010019.000,A,3727.2225,N,12636.9991,E,29.5,181.1,290725,,*38
$GPRMC,010020.000,A,3727.2143,N,12636.9989,E,29.6,181.1,290725,,*3B
$GPRMC,010021.000,A,3727.2061,N,12636.9988,E,29.6,181.1,290725,,*3A
$GPRMC,010022.000,A,3727.1979,N,12636.9986,E,29.6,181.1,290725,,*34
$GPRMC,010023.000,A,3727.1897,N,12636.9985,E,29.6,181.1,290725,,*37
$GPRMC,010024.000,A,3727.1815,N,12636.9983,E,29.6,181.1,290725,,*3C
$GPRMC,010025.000,A,3727.1733,N,12636.9982,E,29.6,181.1,290725,,*37
$GPRMC,010026.000,A,3727.1652,N,12636.9980,E,29.6,181.2,290725,,*33
$GPRMC,010027.000,A,3727.1570,N,12636.9978,E,29.6,181.2,290725,,*36
$GPRMC,010028.000,A,3727.1488,N,12636.9977,E,29.6,181.2,290725,,*30
$GPRMC,010029.000,A,3727.1406,N,12636.9975,E,29.6,181.2,290725,,*35
$GPRMC,010030.000,A,3727.1324,N,12636.9974,E,29.6,181.2,290725,,*3B
$GPRMC,010031.000,A,3727.1242,N,12636.9972,E,29.6,181.2,290725,,*3D
$GPRMC,010032.000,A,3727.1160,N,12636.9971,E,29.6,181.2,290725,,*3E
$GPRMC,010033.000,A,3727.1079,N,12636.9969,E,29.6,181.2,290725,,*3F
$GPRMC,010034.000,A,3727.0997,N,12636.9968,E,29.6,181.2,290725,,*31
$GPRMC,010035.000,A,3727.0915,N,12636.9966,E,29.6,181.2,290725,,*34
$GPRMC,010036.000,A,3727.0833,N,12636.9965,E,29.6,181.3,290725,,*30
$GPRMC,010037.000,A,3727.0751,N,12636.9963,E,29.6,181.3,290725,,*3C
$GPRMC,010038.000,A,3727.0669,N,12636.9962,E,29.6,181.3,290725,,*38
$GPRMC,010039.000,A,3727.0587,N,12636.9960,E,29.6,181.3,290725,,*38
$GPRMC,010040.000,A,3727.0506,N,12636.9958,E,29.6,181.3,290725,,*34
$GPRMC,010041.000,A,3727.0424,N,12636.9957,E,29.6,181.3,290725,,*3B
$GPRMC,010042.000,A,3727.0342,N,12636.9955,E,29.6,181.3,290725,,*3D
$GPRMC,010043.000,A,3727.0260,N,12636.9954,E,29.6,181.3,290725,,*3C
$GPRMC,010044.000,A,3727.0178,N,12636.9952,E,29.6,181.3,290725,,*37
$GPRMC,010045.000,A,3727.0096,N,12636.9951,E,29.6,181.3,290725,,*34
$GPRMC,010046.000,A,3727.0014,N,12636.9949,E,29.6,181.4,290725,,*33
$GPRMC,010047.000,A,3726.9933,N,12636.9948,E,29.6,181.4,290725,,*37
$GPRMC,010048.000,A,3726.9851,N,12636.9946,E,29.6,181.4,290725,,*33
$GPRMC,010049.000,A,3726.9769,N,12636.9945,E,29.6,181.4,290725,,*35
$GPRMC,010050.000,A,3726.9687,N,12636.9943,E,29.6,181.4,290725,,*3A
$GPRMC,010051.000,A,3726.9605,N,12636.9942,E,29.6,181.4,290725,,*30
$GPRMC,010052.000,A,3726.9523,N,12636.9940,E,29.6,181.4,290725,,*36
$GPRMC,010053.000,A,3726.9441,N,12636.9939,E,29.6,181.4,290725,,*3C
$GPRMC,010054.000,A,3726.9360,N,12636.9937,E,29.7,181.4,290725,,*30
$GPRMC,010055.000,A,3726.9278,N,12636.9935,E,29.7,181.4,290725,,*3B
$GPRMC,010056.000,A,3726.9196,N,12636.9934,E,29.7,181.5,290725,,*3B
$GPRMC,010057.000,A,3726.9114,N,12636.9932,E,29.7,181.5,290725,,*36
$GPRMC,010058.000,A,3726.9032,N,12636.9931,E,29.7,181.5,290725,,*3F
$GPRMC,010059.000,A,3726.8950,N,12636.9929,E,29.7,181.5,290725,,*3B
$GPRMC,010100.000,A,3726.8868,N,12636.9928,E,29.7,181.5,290725,,*3D
$GPRMC,010101.000,A,3726.8787,N,12636.9926,E,29.7,181.5,290725,,*3C
$GPRMC,010102.000,A,3726.8705,N,12636.9925,E,29.7,181.5,290725,,*36
$GPRMC,010103.000,A,3726.8623,N,12636.9923,E,29.7,181.5,290725,,*34
$GPRMC,010104.000,A,3726.8541,N,12636.9922,E,29.7,181.5,290725,,*35
$GPRMC,010105.000,A,3726.8459,N,12636.9920,E,29.7,181.5,290725,,*3E
$GPRMC,010106.000,A,3726.8377,N,12636.9919,E,29.7,181.6,290725,,*3F
$GPRMC,010107.000,A,3726.8295,N,12636.9917,E,29.7,181.6,290725,,*3D
$GPRMC,010108.000,A,3726.8213,N,12636.9915,E,29.7,181.6,290725,,*3E
$GPRMC,010109.000,A,3726.8132,N,12636.9914,E,29.7,181.6,290725,,*3E
$GPRMC,010110.000,A,3726.8050,N,12636.9912,E,29.7,181.6,290725,,*35
$GPRMC,010111.000,A,3726.7968,N,12636.9911,E,29.7,181.6,290725,,*3A
$GPRMC,010112.000,A,3726.7886,N,12636.9909,E,29.7,181.6,290725,,*31
$GPRMC,010113.000,A,3726.7804,N,12636.9908,E,29.7,181.6,290725,,*3B
$GPRMC,010114.000,A,3726.7722,N,12636.9906,E,29.7,181.6,290725,,*39
$GPRMC,010115.000,A,3726.7640,N,12636.9905,E,29.7,181.6,290725,,*3E
$GPRMC,010116.000,A,3726.7559,N,12636.9903,E,29.7,181.7,290725,,*31
$GPRMC,010117.000,A,3726.7477,N,12636.9902,E,29.7,181.7,290725,,*3C
$GPRMC,010118.000,A,3726.7395,N,12636.9900,E,29.7,181.7,290725,,*3A
$GPRMC,010119.000,A,3726.7313,N,12636.9899,E,29.7,181.7,290725,,*34
$GPRMC,010120.000,A,3726.7231,N,12636.9897,E,29.7,181.7,290725,,*31
$GPRMC,010121.000,A,3726.7149,N,12636.9895,E,29.7,181.7,290725,,*3E
$GPRMC,010122.000,A,3726.7067,N,12636.9894,E,29.7,181.7,290725,,*31
$GPRMC,010123.000,A,3726.6986,N,12636.9892,E,29.7,181.7,290725,,*31
$GPRMC,010124.000,A,3726.6904,N,12636.9891,E,29.7,181.7,290725,,*3F
$GPRMC,010125.000,A,3726.6822,N,12636.9889,E,29.7,181.7,290725,,*32
$GPRMC,010126.000,A,3726.6740,N,12636.9888,E,29.7,181.8,290725,,*34
$GPRMC,010127.000,A,3726.6658,N,12636.9886,E,29.7,181.8,290725,,*33
$GPRMC,010128.000,A,3726.6576,N,12636.9885,E,29.8,181.8,290725,,*3F
$GPRMC,010129.000,A,3726.6494,N,12636.9883,E,29.8,181.8,290725,,*35
$GPRMC,010130.000,A,3726.6413,N,12636.9882,E,29.8,181.8,290725,,*33
$GPRMC,010131.000,A,3726.6331,N,12636.9880,E,29.8,181.8,290725,,*37
$GPRMC,010132.000,A,3726.6249,N,12636.9879,E,29.8,181.8,290725,,*3C
$GPRMC,010133.000,A,3726.6167,N,12636.9877,E,29.8,181.8,290725,,*3C
$GPRMC,010134.000,A,3726.6085,N,12636.9875,E,29.8,181.8,290725,,*34
$GPRMC,010135.000,A,3726.6003,N,12636.9874,E,29.8,181.8,290725,,*3A
$GPRMC,010136.000,A,3726.5921,N,12636.9872,E,29.8,181.9,290725,,*34
$GPRMC,010137.000,A,3726.5840,N,12636.9871,E,29.8,181.9,290725,,*30
$GPRMC,010138.000,A,3726.5758,N,12636.9869,E,29.8,181.9,290725,,*30
$GPRMC,010139.000,A,3726.5676,N,12636.9868,E,29.8,181.9,290725,,*3D
$GPRMC,010140.000,A,3726.5594,N,12636.9866,E,29.8,181.9,290725,,*32
$GPRMC,010141.000,A,3726.5512,N,12636.9865,E,29.8,181.9,290725,,*3E
$GPRMC,010142.000,A,3726.5430,N,12636.9863,E,29.8,181.9,290725,,*3A
$GPRMC,010143.000,A,3726.5348,N,12636.9862,E,29.8,181.9,290725,,*32
$GPRMC,010144.000,A,3726.5267,N,12636.9860,E,29.8,181.9,290725,,*3B
$GPRMC,010145.000,A,3726.5185,N,12636.9859,E,29.8,181.9,290725,,*3F
$GPRMC,010146.000,A,3726.5103,N,12636.9857,E,29.8,181.9,290725,,*3C
$GPRMC,010147.000,A,3726.5021,N,12636.9855,E,29.8,182.0,290725,,*34
$GPRMC,010148.000,A,3726.4939,N,12636.9854,E,29.8,182.0,290725,,*3B
$GPRMC,010149.000,A,3726.4857,N,12636.9852,E,29.8,182.0,290725,,*35
$GPRMC,010150.000,A,3726.4775,N,12636.9851,E,29.8,182.0,290725,,*31
$GPRMC,010151.000,A,3726.4693,N,12636.9849,E,29.8,182.0,290725,,*30
$GPRMC,010152.000,A,3726.4612,N,12636.9848,E,29.8,182.0,290725,,*3B
$GPRMC,010153.000,A,3726.4530,N,12636.9846,E,29.8,182.0,290725,,*37
$GPRMC,010154.000,A,3726.4448,N,12636.9845,E,29.8,182.0,290725,,*3D
$GPRMC,010155.000,A,3726.4366,N,12636.9843,E,29.8,182.0,290725,,*31
$GPRMC,010156.000,A,3726.4284,N,12636.9842,E,29.8,182.0,290725,,*3E
$GPRMC,010157.000,A,3726.4202,N,12636.9840,E,29.8,182.1,290725,,*32
$GPRMC,010158.000,A,3726.4120,N,12636.9839,E,29.8,182.1,290725,,*30
$GPRMC,010159.000,A,3726.4039,N,12636.9837,E,29.8,182.1,290725,,*36
$GPRMC,010200.000,A,3726.3957,N,12636.9835,E,29.8,182.1,290725,,*3D
$GPRMC,010201.000,A,3726.3875,N,12636.9834,E,29.8,182.1,290725,,*3C
$GPRMC,010202.000,A,3726.3793,N,12636.9832,E,29.9,182.1,290725,,*3F
$GPRMC,010203.000,A,3726.3711,N,12636.9831,E,29.9,182.1,290725,,*37
$GPRMC,010204.000,A,3726.3629,N,12636.9829,E,29.9,182.1,290725,,*33
$GPRMC,010205.000,A,3726.3547,N,12636.9828,E,29.9,182.1,290725,,*38
$GPRMC,010206.000,A,3726.3466,N,12636.9826,E,29.9,182.1,290725,,*37
$GPRMC,010207.000,A,3726.3384,N,12636.9825,E,29.9,182.2,290725,,*3D
$GPRMC,010208.000,A,3726.3302,N,12636.9823,E,29.9,182.2,290725,,*3A
$GPRMC,010209.000,A,3726.3220,N,12636.9822,E,29.9,182.2,290725,,*3B
$GPRMC,010210.000,A,3726.3138,N,12636.9820,E,29.9,182.2,290725,,*3B
$GPRMC,010211.000,A,3726.3056,N,12636.9819,E,29.9,182.2,290725,,*39
$GPRMC,010212.000,A,3726.2974,N,12636.9817,E,29.9,182.2,290725,,*3C
$GPRMC,010213.000,A,3726.2893,N,12636.9816,E,29.9,182.2,290725,,*34
$GPRMC,010214.000,A,3726.2811,N,12636.9814,E,29.9,182.2,290725,,*3B
$GPRMC,010215.000,A,3726.2729,N,12636.9812,E,29.9,182.2,290725,,*38
$GPRMC,010216.000,A,3726.2647,N,12636.9811,E,29.9,182.2,290725,,*31
$GPRMC,010217.000,A,3726.2565,N,12636.9809,E,29.9,182.3,290725,,*3B
$GPRMC,010218.000,A,3726.2483,N,12636.9808,E,29.9,182.3,290725,,*3C
$GPRMC,010219.000,A,3726.2401,N,12636.9806,E,29.9,182.3,290725,,*39
$GPRMC,010220.000,A,3726.2320,N,12636.9805,E,29.9,182.3,290725,,*34
$GPRMC,010221.000,A,3726.2238,N,12636.9803,E,29.9,182.3,290725,,*3B
$GPRMC,010222.000,A,3726.2156,N,12636.9802,E,29.9,182.3,290725,,*32
$GPRMC,010223.000,A,3726.2074,N,12636.9800,E,29.9,182.3,290725,,*30
$GPRMC,010224.000,A,3726.1992,N,12636.9799,E,29.9,182.3,290725,,*3A
$GPRMC,010225.000,A,3726.1910,N,12636.9797,E,29.9,182.3,290725,,*3F
$GPRMC,010226.000,A,3726.1828,N,12636.9796,E,29.9,182.3,290725,,*37
$GPRMC,010227.000,A,3726.1747,N,12636.9794,E,29.9,182.3,290725,,*32
$GPRMC,010228.000,A,3726.1665,N,12636.9792,E,29.9,182.4,290725,,*3D
$GPRMC,010229.000,A,3726.1583,N,12636.9791,E,29.9,182.4,290725,,*34
$GPRMC,010230.000,A,3726.1501,N,12636.9789,E,29.9,182.4,290725,,*3F
$GPRMC,010231.000,A,3726.1419,N,12636.9788,E,29.9,182.4,290725,,*37
$GPRMC,010232.000,A,3726.1337,N,12636.9786,E,29.9,182.4,290725,,*31
$GPRMC,010233.000,A,3726.1255,N,12636.9785,E,29.9,182.4,290725,,*36
$GPRMC,010234.000,A,3726.1173,N,12636.9783,E,29.9,182.4,290725,,*30
$GPRMC,010235.000,A,3726.1092,N,12636.9782,E,29.9,182.4,290725,,*3E
$GPRMC,010236.000,A,3726.1010,N,12636.9780,E,30.0,182.4,290725,,*34
$GPRMC,010237.000,A,3726.0928,N,12636.9779,E,30.0,182.4,290725,,*30
$GPRMC,010238.000,A,3726.0846,N,12636.9777,E,30.0,182.5,290725,,*39
$GPRMC,010239.000,A,3726.0764,N,12636.9776,E,30.0,182.5,290725,,*36
$GPRMC,010240.000,A,3726.0682,N,12636.9774,E,30.0,182.5,290725,,*33
$GPRMC,010241.000,A,3726.0600,N,12636.9772,E,30.0,182.5,290725,,*3E
$GPRMC,010242.000,A,3726.0519,N,12636.9771,E,30.0,182.5,290725,,*35
$GPRMC,010243.000,A,3726.0437,N,12636.9769,E,30.0,182.5,290725,,*30
$GPRMC,010244.000,A,3726.0355,N,12636.9768,E,30.0,182.5,290725,,*35
$GPRMC,010245.000,A,3726.0273,N,12636.9766,E,30.0,182.5,290725,,*3F
$GPRMC,010246.000,A,3726.0191,N,12636.9765,E,30.0,182.5,290725,,*30
$GPRMC,010247.000,A,3726.0109,N,12636.9763,E,30.0,182.5,290725,,*36
$GPRMC,010248.000,A,3726.0027,N,12636.9762,E,30.0,182.5,290725,,*35
$GPRMC,010249.000,A,3725.9946,N,12636.9760,E,30.0,182.6,290725,,*31
$GPRMC,010250.000,A,3725.9864,N,12636.9759,E,30.0,182.6,290725,,*32
$GPRMC,010251.000,A,3725.9782,N,12636.9757,E,30.0,182.6,290725,,*3A
$GPRMC,010252.000,A,3725.9700,N,12636.9756,E,30.0,182.6,290725,,*32
$GPRMC,010253.000,A,3725.9618,N,12636.9754,E,30.0,182.6,290725,,*39
$GPRMC,010254.000,A,3725.9536,N,12636.9752,E,30.0,182.6,290725,,*37
$GPRMC,010255.000,A,3725.9454,N,12636.9751,E,30.0,182.6,290725,,*30
$GPRMC,010256.000,A,3725.9373,N,12636.9749,E,30.0,182.6,290725,,*38
$GPRMC,010257.000,A,3725.9291,N,12636.9748,E,30.0,182.6,290725,,*35
$GPRMC,010258.000,A,3725.9209,N,12636.9746,E,30.0,182.6,290725,,*35
$GPRMC,010259.000,A,3725.9127,N,12636.9745,E,30.0,182.6,290725,,*38
$GPRMC,010300.000,A,3725.9045,N,12636.9743,E,30.0,182.7,290725,,*37
$GPRMC,010301.000,A,3725.8963,N,12636.9742,E,30.0,182.7,290725,,*3B
$GPRMC,010302.000,A,3725.8881,N,12636.9740,E,30.0,182.7,290725,,*37
$GPRMC,010303.000,A,3725.8800,N,12636.9739,E,30.0,182.7,290725,,*31
$GPRMC,010304.000,A,3725.8718,N,12636.9737,E,30.0,182.7,290725,,*3E
$GPRMC,010305.000,A,3725.8636,N,12636.9736,E,30.0,182.7,290725,,*33
$GPRMC,010306.000,A,3725.8554,N,12636.9734,E,30.0,182.7,290725,,*35
$GPRMC,010307.000,A,3725.8472,N,12636.9732,E,30.0,182.7,290725,,*37
$GPRMC,010308.000,A,3725.8390,N,12636.9731,E,30.0,182.7,290725,,*30
$GPRMC,010309.000,A,3725.8308,N,12636.9729,E,30.0,182.7,290725,,*39
$GPRMC,010310.000,A,3725.8227,N,12636.9728,E,30.0,182.8,290725,,*33
$GPRMC,010311.000,A,3725.8145,N,12636.9726,E,30.1,182.8,290725,,*3A
$GPRMC,010312.000,A,3725.8063,N,12636.9725,E,30.1,182.8,290725,,*3F
$GPRMC,010313.000,A,3725.7981,N,12636.9723,E,30.1,182.8,290725,,*32
$GPRMC,010314.000,A,3725.7899,N,12636.9722,E,30.1,182.8,290725,,*3C
$GPRMC,010315.000,A,3725.7817,N,12636.9720,E,30.1,182.8,290725,,*39
$GPRMC,010316.000,A,3725.7735,N,12636.9719,E,30.1,182.8,290725,,*3F
$GPRMC,010317.000,A,3725.7653,N,12636.9717,E,30.1,182.8,290725,,*31
$GPRMC,010318.000,A,3725.7572,N,12636.9716,E,30.1,182.8,290725,,*3F
$GPRMC,010319.000,A,3725.7490,N,12636.9714,E,30.1,182.8,290725,,*31
$GPRMC,010320.000,A,3725.7408,N,12636.9712,E,30.1,182.8,290725,,*3C
$GPRMC,010321.000,A,3725.7326,N,12636.9711,E,30.1,182.9,290725,,*34
$GPRMC,010322.000,A,3725.7244,N,12636.9709,E,30.1,182.9,290725,,*3B
$GPRMC,010323.000,A,3725.7162,N,12636.9708,E,30.1,182.9,290725,,*3C
$GPRMC,010324.000,A,3725.7080,N,12636.9706,E,30.1,182.9,290725,,*38
$GPRMC,010325.000,A,3725.6999,N,12636.9705,E,30.1,182.9,290725,,*3A
$GPRMC,010326.000,A,3725.6917,N,12636.9703,E,30.1,182.9,290725,,*39
$GPRMC,010327.000,A,3725.6835,N,12636.9702,E,30.1,182.9,290725,,*38
$GPRMC,010328.000,A,3725.6753,N,12636.9700,E,30.1,182.9,290725,,*3A
$GPRMC,010329.000,A,3725.6671,N,12636.9699,E,30.1,182.9,290725,,*3B
$GPRMC,010330.000,A,3725.6589,N,12636.9697,E,30.1,182.9,290725,,*39
$GPRMC,010331.000,A,3725.6507,N,12636.9696,E,30.1,182.9,290725,,*3F
$GPRMC,010332.000,A,3725.6426,N,12636.9694,E,30.1,183.0,290725,,*34
$GPRMC,010333.000,A,3725.6344,N,12636.9693,E,30.1,183.0,290725,,*31
$GPRMC,010334.000,A,3725.6262,N,12636.9691,E,30.1,183.0,290725,,*31
$GPRMC,010335.000,A,3725.6180,N,12636.9689,E,30.1,183.0,290725,,*36
$GPRMC,010336.000,A,3725.6098,N,12636.9688,E,30.1,183.0,290725,,*3C
$GPRMC,010337.000,A,3725.6016,N,12636.9686,E,30.1,183.0,290725,,*35
$GPRMC,010338.000,A,3725.5934,N,12636.9685,E,30.1,183.0,290725,,*33
$GPRMC,010339.000,A,3725.5853,N,12636.9683,E,30.1,183.0,290725,,*34
$GPRMC,010340.000,A,3725.5771,N,12636.9682,E,30.1,183.0,290725,,*34
$GPRMC,010341.000,A,3725.5689,N,12636.9680,E,30.1,183.0,290725,,*31
$GPRMC,010342.000,A,3725.5607,N,12636.9679,E,30.1,183.0,290725,,*32
$GPRMC,010343.000,A,3725.5525,N,12636.9677,E,30.1,183.1,290725,,*3F
$GPRMC,010344.000,A,3725.5443,N,12636.9676,E,30.1,183.1,290725,,*38
$GPRMC,010345.000,A,3725.5361,N,12636.9674,E,30.2,183.1,290725,,*3F
$GPRMC,010346.000,A,3725.5280,N,12636.9673,E,30.2,183.1,290725,,*35
$GPRMC,010347.000,A,3725.5198,N,12636.9671,E,30.2,183.1,290725,,*3C
$GPRMC,010348.000,A,3725.5116,N,12636.9669,E,30.2,183.1,290725,,*3C
$GPRMC,010349.000,A,3725.5034,N,12636.9668,E,30.2,183.1,290725,,*3D
$GPRMC,010350.000,A,3725.4952,N,12636.9666,E,30.2,183.1,290725,,*33
$GPRMC,010351.000,A,3725.4870,N,12636.9665,E,30.2,183.1,290725,,*30
$GPRMC,010352.000,A,3725.4788,N,12636.9663,E,30.2,183.1,290725,,*3D
$GPRMC,010353.000,A,3725.4707,N,12636.9662,E,30.2,183.1,290725,,*3A
$GPRMC,010354.000,A,3725.4625,N,12636.9660,E,30.2,183.2,290725,,*3D
$GPRMC,010355.000,A,3725.4543,N,12636.9659,E,30.2,183.2,290725,,*35
$GPRMC,010356.000,A,3725.4461,N,12636.9657,E,30.2,183.2,290725,,*39
$GPRMC,010357.000,A,3725.4379,N,12636.9656,E,30.2,183.2,290725,,*37
$GPRMC,010358.000,A,3725.4297,N,12636.9654,E,30.2,183.2,290725,,*3B
$GPRMC,010359.000,A,3725.4215,N,12636.9653,E,30.2,183.2,290725,,*37
$GPRMC,010400.000,A,3725.4133,N,12636.9651,E,30.2,183.2,290725,,*39
$GPRMC,010401.000,A,3725.4052,N,12636.9649,E,30.2,183.2,290725,,*37
$GPRMC,010402.000,A,3725.3970,N,12636.9648,E,30.2,183.2,290725,,*3B
$GPRMC,010403.000,A,3725.3888,N,12636.9646,E,30.2,183.2,290725,,*32
$GPRMC,010404.000,A,3725.3806,N,12636.9645,E,30.2,183.2,290725,,*30
$GPRMC,010405.000,A,3725.3724,N,12636.9643,E,30.2,183.3,290725,,*39
$GPRMC,010406.000,A,3725.3642,N,12636.9642,E,30.2,183.3,290725,,*3A
$GPRMC,010407.000,A,3725.3560,N,12636.9640,E,30.2,183.3,290725,,*3A
$GPRMC,010408.000,A,3725.3479,N,12636.9639,E,30.2,183.3,290725,,*32
$GPRMC,010409.000,A,3725.3397,N,12636.9637,E,30.2,183.3,290725,,*3A
$GPRMC,010410.000,A,3725.3315,N,12636.9636,E,30.2,183.3,290725,,*39
$GPRMC,010411.000,A,3725.3233,N,12636.9634,E,30.2,183.3,290725,,*3F
$GPRMC,010412.000,A,3725.3151,N,12636.9633,E,30.2,183.3,290725,,*3C
$GPRMC,010413.000,A,3725.3069,N,12636.9631,E,30.2,183.3,290725,,*35
$GPRMC,010414.000,A,3725.2987,N,12636.9629,E,30.2,183.3,290725,,*33
$GPRMC,010415.000,A,3725.2906,N,12636.9628,E,30.2,183.3,290725,,*3A
$GPRMC,010416.000,A,3725.2824,N,12636.9626,E,30.2,183.3,290725,,*36
$GPRMC,010417.000,A,3725.2742,N,12636.9625,E,30.2,183.4,290725,,*3C
$GPRMC,010418.000,A,3725.2660,N,12636.9623,E,30.2,183.4,290725,,*34
$GPRMC,010419.000,A,3725.2578,N,12636.9622,E,30.2,183.4,290725,,*3E
$GPRMC,010420.000,A,3725.2496,N,12636.9620,E,30.3,183.4,290725,,*36
$GPRMC,010421.000,A,3725.2414,N,12636.9619,E,30.3,183.4,290725,,*37
$GPRMC,010422.000,A,3725.2333,N,12636.9617,E,30.3,183.4,290725,,*38
$GPRMC,010423.000,A,3725.2251,N,12636.9616,E,30.3,183.4,290725,,*3D
$GPRMC,010424.000,A,3725.2169,N,12636.9614,E,30.3,183.4,290725,,*30
$GPRMC,010425.000,A,3725.2087,N,12636.9613,E,30.3,183.4,290725,,*37
$GPRMC,010426.000,A,3725.2005,N,12636.9611,E,30.3,183.4,290725,,*3C
$GPRMC,010427.000,A,3725.1923,N,12636.9609,E,30.3,183.4,290725,,*3A
$GPRMC,010428.000,A,3725.1841,N,12636.9608,E,30.3,183.5,290725,,*30
$GPRMC,010429.000,A,3725.1760,N,12636.9606,E,30.3,183.5,290725,,*33
$GPRMC,010430.000,A,3725.1678,N,12636.9605,E,30.3,183.5,290725,,*30
$GPRMC,010431.000,A,3725.1596,N,12636.9603,E,30.3,183.5,290725,,*34
$GPRMC,010432.000,A,3725.1514,N,12636.9602,E,30.3,183.5,290725,,*3C
$GPRMC,010433.000,A,3725.1432,N,12636.9600,E,30.3,183.5,290725,,*3A
$GPRMC,010434.000,A,3725.1350,N,12636.9599,E,30.3,183.5,290725,,*3D
$GPRMC,010435.000,A,3725.1268,N,12636.9597,E,30.3,183.5,290725,,*38
$GPRMC,010436.000,A,3725.1187,N,12636.9596,E,30.3,183.5,290725,,*38
$GPRMC,010437.000,A,3725.1105,N,12636.9594,E,30.3,183.5,290725,,*31
$GPRMC,010438.000,A,3725.1023,N,12636.9593,E,30.3,183.5,290725,,*3C
$GPRMC,010439.000,A,3725.0941,N,12636.9591,E,30.3,183.5,290725,,*33
$GPRMC,010440.000,A,3725.0859,N,12636.9590,E,30.3,183.6,290725,,*37
$GPRMC,010441.000,A,3725.0777,N,12636.9588,E,30.3,183.6,290725,,*3C
$GPRMC,010442.000,A,3725.0695,N,12636.9586,E,30.3,183.6,290725,,*3C
$GPRMC,010443.000,A,3725.0614,N,12636.9585,E,30.3,183.6,290725,,*37
$GPRMC,010444.000,A,3725.0532,N,12636.9583,E,30.3,183.6,290725,,*31
$GPRMC,010445.000,A,3725.0450,N,12636.9582,E,30.3,183.6,290725,,*34
$GPRMC,010446.000,A,3725.0368,N,12636.9580,E,30.3,183.6,290725,,*39
$GPRMC,010447.000,A,3725.0286,N,12636.9579,E,30.3,183.6,290725,,*3F
$GPRMC,010448.000,A,3725.0204,N,12636.9577,E,30.3,183.6,290725,,*34
$GPRMC,010449.000,A,3725.0122,N,12636.9576,E,30.3,183.6,290725,,*33
$GPRMC,010450.000,A,3725.0040,N,12636.9574,E,30.3,183.6,290725,,*3C
$GPRMC,010451.000,A,3724.9959,N,12636.9573,E,30.3,183.6,290725,,*33
$GPRMC,010452.000,A,3724.9877,N,12636.9571,E,30.3,183.7,290725,,*3E
$GPRMC,010453.000,A,3724.9795,N,12636.9570,E,30.3,183.7,290725,,*3D
$GPRMC,010454.000,A,3724.9713,N,12636.9568,E,30.3,183.7,290725,,*3D
$GPRMC,010455.000,A,3724.9631,N,12636.9566,E,30.4,183.7,290725,,*34
$GPRMC,010456.000,A,3724.9549,N,12636.9565,E,30.4,183.7,290725,,*38
$GPRMC,010457.000,A,3724.9467,N,12636.9563,E,30.4,183.7,290725,,*32
$GPRMC,010458.000,A,3724.9386,N,12636.9562,E,30.4,183.7,290725,,*34
$GPRMC,010459.000,A,3724.9304,N,12636.9560,E,30.4,183.7,290725,,*3D
$GPRMC,010500.000,A,3724.9222,N,12636.9559,E,30.4,183.7,290725,,*3F
$GPRMC,010501.000,A,3724.9140,N,12636.9557,E,30.4,183.7,290725,,*37
$GPRMC,010502.000,A,3724.9058,N,12636.9556,E,30.4,183.7,290725,,*3D
$GPRMC,010503.000,A,3724.8976,N,12636.9554,E,30.4,183.7,290725,,*3A
$GPRMC,010504.000,A,3724.8894,N,12636.9553,E,30.4,183.8,290725,,*38
$GPRMC,010505.000,A,3724.8813,N,12636.9551,E,30.4,183.8,290725,,*34
$GPRMC,010506.000,A,3724.8731,N,12636.9550,E,30.4,183.8,290725,,*39
$GPRMC,010507.000,A,3724.8649,N,12636.9548,E,30.4,183.8,290725,,*3F
$GPRMC,010508.000,A,3724.8567,N,12636.9546,E,30.4,183.8,290725,,*31
$GPRMC,010509.000,A,3724.8485,N,12636.9545,E,30.4,183.8,290725,,*3E
$GPRMC,010510.000,A,3724.8403,N,12636.9543,E,30.4,183.8,290725,,*3E
$GPRMC,010511.000,A,3724.8321,N,12636.9542,E,30.4,183.8,290725,,*39
$GPRMC,010512.000,A,3724.8240,N,12636.9540,E,30.4,183.8,290725,,*3E
$GPRMC,010513.000,A,3724.8158,N,12636.9539,E,30.4,183.8,290725,,*3B
$GPRMC,010514.000,A,3724.8076,N,12636.9537,E,30.4,183.8,290725,,*3F
$GPRMC,010515.000,A,3724.7994,N,12636.9536,E,30.4,183.8,290725,,*35
$GPRMC,010516.000,A,3724.7912,N,12636.9534,E,30.4,183.9,290725,,*3B
$GPRMC,010517.000,A,3724.7830,N,12636.9533,E,30.4,183.9,290725,,*3C
$GPRMC,010518.000,A,3724.7748,N,12636.9531,E,30.4,183.9,290725,,*31
$GPRMC,010519.000,A,3724.7667,N,12636.9530,E,30.4,183.9,290725,,*3D
$GPRMC,010520.000,A,3724.7585,N,12636.9528,E,30.4,183.9,290725,,*31
$GPRMC,010521.000,A,3724.7503,N,12636.9526,E,30.4,183.9,290725,,*30
$GPRMC,010522.000,A,3724.7421,N,12636.9525,E,30.4,183.9,290725,,*31
$GPRMC,010523.000,A,3724.7339,N,12636.9523,E,30.4,183.9,290725,,*38
$GPRMC,010524.000,A,3724.7257,N,12636.9522,E,30.4,183.9,290725,,*37
$GPRMC,010525.000,A,3724.7175,N,12636.9520,E,30.4,183.9,290725,,*37
$GPRMC,010526.000,A,3724.7094,N,12636.9519,E,30.4,183.9,290725,,*30
$GPRMC,010527.000,A,3724.7012,N,12636.9517,E,30.4,183.9,290725,,*31
$GPRMC,010528.000,A,3724.6930,N,12636.9516,E,30.4,183.9,290725,,*37
$GPRMC,010529.000,A,3724.6848,N,12636.9514,E,30.4,184.0,290725,,*34
$GPRMC,010530.000,A,3724.6766,N,12636.9513,E,30.4,184.0,290725,,*38
$GPRMC,010531.000,A,3724.6684,N,12636.9511,E,30.5,184.0,290725,,*37
$GPRMC,010532.000,A,3724.6602,N,12636.9510,E,30.5,184.0,290725,,*3B
$GPRMC,010533.000,A,3724.6520,N,12636.9508,E,30.5,184.0,290725,,*30
$GPRMC,010534.000,A,3724.6439,N,12636.9506,E,30.5,184.0,290725,,*30
$GPRMC,010535.000,A,3724.6357,N,12636.9505,E,30.5,184.0,290725,,*3D
$GPRMC,010536.000,A,3724.6275,N,12636.9503,E,30.5,184.0,290725,,*39
$GPRMC,010537.000,A,3724.6193,N,12636.9502,E,30.5,184.0,290725,,*32
$GPRMC,010538.000,A,3724.6111,N,12636.9500,E,30.5,184.0,290725,,*35
$GPRMC,010539.000,A,3724.6029,N,12636.9499,E,30.5,184.0,290725,,*3F
$GPRMC,010540.000,A,3724.5947,N,12636.9497,E,30.5,184.0,290725,,*3D
$GPRMC,010541.000,A,3724.5866,N,12636.9496,E,30.5,184.0,290725,,*3F
$GPRMC,010542.000,A,3724.5784,N,12636.9494,E,30.5,184.1,290725,,*3C
$GPRMC,010543.000,A,3724.5702,N,12636.9493,E,30.5,184.1,290725,,*34
$GPRMC,010544.000,A,3724.5620,N,12636.9491,E,30.5,184.1,290725,,*30
$GPRMC,010545.000,A,3724.5538,N,12636.9490,E,30.5,184.1,290725,,*3A
$GPRMC,010546.000,A,3724.5456,N,12636.9488,E,30.5,184.1,290725,,*39
$GPRMC,010547.000,A,3724.5374,N,12636.9486,E,30.5,184.1,290725,,*31
$GPRMC,010548.000,A,3724.5293,N,12636.9485,E,30.5,184.1,290725,,*35
$GPRMC,010549.000,A,3724.5211,N,12636.9483,E,30.5,184.1,290725,,*38
$GPRMC,010550.000,A,3724.5129,N,12636.9482,E,30.5,184.1,290725,,*39
$GPRMC,010551.000,A,3724.5047,N,12636.9480,E,30.5,184.1,290725,,*33
$GPRMC,010552.000,A,3724.4965,N,12636.9479,E,30.5,184.1,290725,,*3E
$GPRMC,010553.000,A,3724.4883,N,12636.9477,E,30.5,184.1,290725,,*38
$GPRMC,010554.000,A,3724.4801,N,12636.9476,E,30.5,184.1,290725,,*34
$GPRMC,010555.000,A,3724.4720,N,12636.9474,E,30.5,184.2,290725,,*38
$GPRMC,010556.000,A,3724.4638,N,12636.9473,E,30.5,184.2,290725,,*34
$GPRMC,010557.000,A,3724.4556,N,12636.9471,E,30.5,184.2,290725,,*3C
$GPRMC,010558.000,A,3724.4474,N,12636.9470,E,30.5,184.2,290725,,*33
$GPRMC,010559.000,A,3724.4392,N,12636.9468,E,30.5,184.2,290725,,*34
$GPRMC,010600.000,A,3724.4310,N,12636.9466,E,30.5,184.2,290725,,*3F
$GPRMC,010601.000,A,3724.4228,N,12636.9465,E,30.5,184.2,290725,,*37
$GPRMC,010602.000,A,3724.4147,N,12636.9463,E,30.5,184.2,290725,,*38
$GPRMC,010603.000,A,3724.4065,N,12636.9462,E,30.5,184.2,290725,,*39
$GPRMC,010604.000,A,3724.3983,N,12636.9460,E,30.5,184.2,290725,,*3A
$GPRMC,010605.000,A,3724.3901,N,12636.9459,E,30.5,184.2,290725,,*3B
$GPRMC,010606.000,A,3724.3819,N,12636.9457,E,30.5,184.2,290725,,*3E
$GPRMC,010607.000,A,3724.3737,N,12636.9456,E,30.6,184.2,290725,,*3E
$GPRMC,010608.000,A,3724.3655,N,12636.9454,E,30.6,184.3,290725,,*37
$GPRMC,010609.000,A,3724.3574,N,12636.9453,E,30.6,184.3,290725,,*31
$GPRMC,010610.000,A,3724.3492,N,12636.9451,E,30.6,184.3,290725,,*32
$GPRMC,010611.000,A,3724.3410,N,12636.9450,E,30.6,184.3,290725,,*38
$GPRMC,010612.000,A,3724.3328,N,12636.9448,E,30.6,184.3,290725,,*3E
$GPRMC,010613.000,A,3724.3246,N,12636.9447,E,30.6,184.3,290725,,*39
$GPRMC,010614.000,A,3724.3164,N,12636.9445,E,30.6,184.3,290725,,*3F
$GPRMC,010615.000,A,3724.3082,N,12636.9443,E,30.6,184.3,290725,,*31
$GPRMC,010616.000,A,3724.3000,N,12636.9442,E,30.6,184.3,290725,,*39
$GPRMC,010617.000,A,3724.2919,N,12636.9440,E,30.6,184.3,290725,,*3A
$GPRMC,010618.000,A,3724.2837,N,12636.9439,E,30.6,184.3,290725,,*36
$GPRMC,010619.000,A,3724.2755,N,12636.9437,E,30.6,184.3,290725,,*32
$GPRMC,010620.000,A,3724.2673,N,12636.9436,E,30.6,184.3,290725,,*3C
$GPRMC,010621.000,A,3724.2591,N,12636.9434,E,30.6,184.3,290725,,*30
$GPRMC,010622.000,A,3724.2509,N,12636.9433,E,30.6,184.4,290725,,*32
$GPRMC,010623.000,A,3724.2427,N,12636.9431,E,30.6,184.4,290725,,*3C
$GPRMC,010624.000,A,3724.2346,N,12636.9430,E,30.6,184.4,290725,,*3A
$GPRMC,010625.000,A,3724.2264,N,12636.9428,E,30.6,184.4,290725,,*33
$GPRMC,010626.000,A,3724.2182,N,12636.9427,E,30.6,184.4,290725,,*34
$GPRMC,010627.000,A,3724.2100,N,12636.9425,E,30.6,184.4,290725,,*3D
$GPRMC,010628.000,A,3724.2018,N,12636.9423,E,30.6,184.4,290725,,*3C
$GPRMC,010629.000,A,3724.1936,N,12636.9422,E,30.6,184.4,290725,,*3A
$GPRMC,010630.000,A,3724.1854,N,12636.9420,E,30.6,184.4,290725,,*35
$GPRMC,010631.000,A,3724.1773,N,12636.9419,E,30.6,184.4,290725,,*34
$GPRMC,010632.000,A,3724.1691,N,12636.9417,E,30.6,184.4,290725,,*34
$GPRMC,010633.000,A,3724.1609,N,12636.9416,E,30.6,184.4,290725,,*35
$GPRMC,010634.000,A,3724.1527,N,12636.9414,E,30.6,184.4,290725,,*3F
$GPRMC,010635.000,A,3724.1445,N,12636.9413,E,30.6,184.4,290725,,*3C
$GPRMC,010636.000,A,3724.1363,N,12636.9411,E,30.6,184.5,290725,,*3F
$GPRMC,010637.000,A,3724.1281,N,12636.9410,E,30.6,184.5,290725,,*32
$GPRMC,010638.000,A,3724.1200,N,12636.9408,E,30.6,184.5,290725,,*3D
$GPRMC,010639.000,A,3724.1118,N,12636.9407,E,30.6,184.5,290725,,*39
$GPRMC,010640.000,A,3724.1036,N,12636.9405,E,30.6,184.5,290725,,*38
$GPRMC,010641.000,A,3724.0954,N,12636.9403,E,30.6,184.5,290725,,*33
$GPRMC,010642.000,A,3724.0872,N,12636.9402,E,30.6,184.5,290725,,*34
$GPRMC,010643.000,A,3724.0790,N,12636.9400,E,30.6,184.5,290725,,*34
$GPRMC,010644.000,A,3724.0708,N,12636.9399,E,30.7,184.5,290725,,*34
$GPRMC,010645.000,A,3724.0627,N,12636.9397,E,30.7,184.5,290725,,*37
$GPRMC,010646.000,A,3724.0545,N,12636.9396,E,30.7,184.5,290725,,*32
$GPRMC,010647.000,A,3724.0463,N,12636.9394,E,30.7,184.5,290725,,*34
$GPRMC,010648.000,A,3724.0381,N,12636.9393,E,30.7,184.5,290725,,*37
$GPRMC,010649.000,A,3724.0299,N,12636.9391,E,30.7,184.5,290725,,*3C
$GPRMC,010650.000,A,3724.0217,N,12636.9390,E,30.7,184.6,290725,,*30
$GPRMC,010651.000,A,3724.0135,N,12636.9388,E,30.7,184.6,290725,,*3B
$GPRMC,010652.000,A,3724.0054,N,12636.9387,E,30.7,184.6,290725,,*31
$GPRMC,010653.000,A,3723.9972,N,12636.9385,E,30.7,184.6,290725,,*31
$GPRMC,010654.000,A,3723.9890,N,12636.9383,E,30.7,184.6,290725,,*3D
$GPRMC,010655.000,A,3723.9808,N,12636.9382,E,30.7,184.6,290725,,*3C
$GPRMC,010656.000,A,3723.9726,N,12636.9380,E,30.7,184.6,290725,,*3E
$GPRMC,010657.000,A,3723.9644,N,12636.9379,E,30.7,184.6,290725,,*3C
$GPRMC,010658.000,A,3723.9562,N,12636.9377,E,30.7,184.6,290725,,*3A
$GPRMC,010659.000,A,3723.9480,N,12636.9376,E,30.7,184.6,290725,,*37
$GPRMC,010700.000,A,3723.9399,N,12636.9374,E,30.7,184.6,290725,,*37
$GPRMC,010701.000,A,3723.9317,N,12636.9373,E,30.7,184.6,290725,,*37
$GPRMC,010702.000,A,3723.9235,N,12636.9371,E,30.7,184.6,290725,,*37
$GPRMC,010703.000,A,3723.9153,N,12636.9370,E,30.7,184.6,290725,,*34
$GPRMC,010704.000,A,3723.9071,N,12636.9368,E,30.7,184.6,290725,,*3B
$GPRMC,010705.000,A,3723.8989,N,12636.9367,E,30.7,184.7,290725,,*3B
$GPRMC,010706.000,A,3723.8907,N,12636.9365,E,30.7,184.7,290725,,*3C
$GPRMC,010707.000,A,3723.8826,N,12636.9363,E,30.7,184.7,290725,,*39
$GPRMC,010708.000,A,3723.8744,N,12636.9362,E,30.7,184.7,290725,,*3C
$GPRMC,010709.000,A,3723.8662,N,12636.9360,E,30.7,184.7,290725,,*3A
$GPRMC,010710.000,A,3723.8580,N,12636.9359,E,30.7,184.7,290725,,*37
$GPRMC,010711.000,A,3723.8498,N,12636.9357,E,30.7,184.7,290725,,*30
$GPRMC,010712.000,A,3723.8416,N,12636.9356,E,30.7,184.7,290725,,*34
$GPRMC,010713.000,A,3723.8334,N,12636.9354,E,30.7,184.7,290725,,*30
$GPRMC,010714.000,A,3723.8253,N,12636.9353,E,30.7,184.7,290725,,*30
$GPRMC,010715.000,A,3723.8171,N,12636.9351,E,30.7,184.7,290725,,*30
$GPRMC,010716.000,A,3723.8089,N,12636.9350,E,30.7,184.7,290725,,*34
$GPRMC,010717.000,A,3723.8007,N,12636.9348,E,30.7,184.7,290725,,*3A
$GPRMC,010718.000,A,3723.7925,N,12636.9347,E,30.7,184.7,290725,,*3C
$GPRMC,010719.000,A,3723.7843,N,12636.9345,E,30.7,184.7,290725,,*3E
$GPRMC,010720.000,A,3723.7761,N,12636.9343,E,30.7,184.8,290725,,*32
$GPRMC,010721.000,A,3723.7680,N,12636.9342,E,30.8,184.8,290725,,*33
$GPRMC,010722.000,A,3723.7598,N,12636.9340,E,30.8,184.8,290725,,*38
$GPRMC,010723.000,A,3723.7516,N,12636.9339,E,30.8,184.8,290725,,*31
$GPRMC,010724.000,A,3723.7434,N,12636.9337,E,30.8,184.8,290725,,*39
$GPRMC,010725.000,A,3723.7352,N,12636.9336,E,30.8,184.8,290725,,*3E
$GPRMC,010726.000,A,3723.7270,N,12636.9334,E,30.8,184.8,290725,,*3E
$GPRMC,010727.000,A,3723.7188,N,12636.9333,E,30.8,184.8,290725,,*3C
$GPRMC,010728.000,A,3723.7107,N,12636.9331,E,30.8,184.8,290725,,*36
$GPRMC,010729.000,A,3723.7025,N,12636.9330,E,30.8,184.8,290725,,*37
$GPRMC,010730.000,A,3723.6943,N,12636.9328,E,30.8,184.8,290725,,*3E
$GPRMC,010731.000,A,3723.6861,N,12636.9327,E,30.8,184.8,290725,,*31
$GPRMC,010732.000,A,3723.6779,N,12636.9325,E,30.8,184.8,290725,,*36
$GPRMC,010733.000,A,3723.6697,N,12636.9324,E,30.8,184.8,290725,,*37
$GPRMC,010734.000,A,3723.6615,N,12636.9322,E,30.8,184.8,290725,,*3C
$GPRMC,010735.000,A,3723.6534,N,12636.9320,E,30.8,184.8,290725,,*3F
$GPRMC,010736.000,A,3723.6452,N,12636.9319,E,30.8,184.9,290725,,*36
$GPRMC,010737.000,A,3723.6370,N,12636.9317,E,30.8,184.9,290725,,*3E
$GPRMC,010738.000,A,3723.6288,N,12636.9316,E,30.8,184.9,290725,,*36
$GPRMC,010739.000,A,3723.6206,N,12636.9314,E,30.8,184.9,290725,,*33
$GPRMC,010740.000,A,3723.6124,N,12636.9313,E,30.8,184.9,290725,,*39
$GPRMC,010741.000,A,3723.6042,N,12636.9311,E,30.8,184.9,290725,,*3B
$GPRMC,010742.000,A,3723.5960,N,12636.9310,E,30.8,184.9,290725,,*33
$GPRMC,010743.000,A,3723.5879,N,12636.9308,E,30.8,184.9,290725,,*32
$GPRMC,010744.000,A,3723.5797,N,12636.9307,E,30.8,184.9,290725,,*35
$GPRMC,010745.000,A,3723.5715,N,12636.9305,E,30.8,184.9,290725,,*3C
$GPRMC,010746.000,A,3723.5633,N,12636.9304,E,30.8,184.9,290725,,*3B
$GPRMC,010747.000,A,3723.5551,N,12636.9302,E,30.8,184.9,290725,,*3B
$GPRMC,010748.000,A,3723.5469,N,12636.9300,E,30.8,184.9,290725,,*3C
$GPRMC,010749.000,A,3723.5387,N,12636.9299,E,30.8,184.9,290725,,*3B
$GPRMC,010750.000,A,3723.5306,N,12636.9297,E,30.8,184.9,290725,,*34
$GPRMC,010751.000,A,3723.5224,N,12636.9296,E,30.8,184.9,290725,,*35
$GPRMC,010752.000,A,3723.5142,N,12636.9294,E,30.8,184.9,290725,,*37
$GPRMC,010753.000,A,3723.5060,N,12636.9293,E,30.8,185.0,290725,,*38
$GPRMC,010754.000,A,3723.4978,N,12636.9291,E,30.8,185.0,290725,,*3C
$GPRMC,010755.000,A,3723.4896,N,12636.9290,E,30.8,185.0,290725,,*3D
$GPRMC,010756.000,A,3723.4814,N,12636.9288,E,30.8,185.0,290725,,*3D
$GPRMC,010757.000,A,3723.4733,N,12636.9287,E,30.8,185.0,290725,,*39
$GPRMC,010758.000,A,3723.4651,N,12636.9285,E,30.8,185.0,290725,,*31
$GPRMC,010759.000,A,3723.4569,N,12636.9284,E,30.9,185.0,290725,,*38
$GPRMC,010800.000,A,3723.4487,N,12636.9282,E,30.9,185.0,290725,,*3C
$GPRMC,010801.000,A,3723.4405,N,12636.9280,E,30.9,185.0,290725,,*35
$GPRMC,010802.000,A,3723.4323,N,12636.9279,E,30.9,185.0,290725,,*33
$GPRMC,010803.000,A,3723.4241,N,12636.9277,E,30.9,185.0,290725,,*39
$GPRMC,010804.000,A,3723.4160,N,12636.9276,E,30.9,185.0,290725,,*3F
$GPRMC,010805.000,A,3723.4078,N,12636.9274,E,30.9,185.0,290725,,*34
$GPRMC,010806.000,A,3723.3996,N,12636.9273,E,30.9,185.0,290725,,*3E
$GPRMC,010807.000,A,3723.3914,N,12636.9271,E,30.9,185.0,290725,,*37
$GPRMC,010808.000,A,3723.3832,N,12636.9270,E,30.9,185.0,290725,,*3C
$GPRMC,010809.000,A,3723.3750,N,12636.9268,E,30.9,185.0,290725,,*3F
$GPRMC,010810.000,A,3723.3668,N,12636.9267,E,30.9,185.1,290725,,*33
$GPRMC,010811.000,A,3723.3587,N,12636.9265,E,30.9,185.1,290725,,*32
$GPRMC,010812.000,A,3723.3505,N,12636.9264,E,30.9,185.1,290725,,*3A
$GPRMC,010813.000,A,3723.3423,N,12636.9262,E,30.9,185.1,290725,,*38
$GPRMC,010814.000,A,3723.3341,N,12636.9260,E,30.9,185.1,290725,,*3E
$GPRMC,010815.000,A,3723.3259,N,12636.9259,E,30.9,185.1,290725,,*3D
$GPRMC,010816.000,A,3723.3177,N,12636.9257,E,30.9,185.1,290725,,*3F
$GPRMC,010817.000,A,3723.3095,N,12636.9256,E,30.9,185.1,290725,,*32
$GPRMC,010818.000,A,3723.3014,N,12636.9254,E,30.9,185.1,290725,,*36
$GPRMC,010819.000,A,3723.2932,N,12636.9253,E,30.9,185.1,290725,,*3C
$GPRMC,010820.000,A,3723.2850,N,12636.9251,E,30.9,185.1,290725,,*31
$GPRMC,010821.000,A,3723.2768,N,12636.9250,E,30.9,185.1,290725,,*35
$GPRMC,010822.000,A,3723.2686,N,12636.9248,E,30.9,185.1,290725,,*3E
$GPRMC,010823.000,A,3723.2604,N,12636.9247,E,30.9,185.1,290725,,*3A
$GPRMC,010824.000,A,3723.2522,N,12636.9245,E,30.9,185.1,290725,,*38
$GPRMC,010825.000,A,3723.2440,N,12636.9244,E,30.9,185.1,290725,,*3D
$GPRMC,010826.000,A,3723.2359,N,12636.9242,E,30.9,185.1,290725,,*37
$GPRMC,010827.000,A,3723.2277,N,12636.9240,E,30.9,185.1,290725,,*39
$GPRMC,010828.000,A,3723.2195,N,12636.9239,E,30.9,185.1,290725,,*37
$GPRMC,010829.000,A,3723.2113,N,12636.9237,E,30.9,185.2,290725,,*35
$GPRMC,010830.000,A,3723.2031,N,12636.9236,E,30.9,185.2,290725,,*3D
$GPRMC,010831.000,A,3723.1949,N,12636.9234,E,30.9,185.2,290725,,*3B
$GPRMC,010832.000,A,3723.1867,N,12636.9233,E,30.9,185.2,290725,,*32
$GPRMC,010833.000,A,3723.1786,N,12636.9231,E,30.9,185.2,290725,,*31
$GPRMC,010834.000,A,3723.1704,N,12636.9230,E,30.9,185.2,290725,,*3D
$GPRMC,010835.000,A,3723.1622,N,12636.9228,E,30.9,185.2,290725,,*30
$GPRMC,010836.000,A,3723.1540,N,12636.9227,E,30.9,185.2,290725,,*3B
$GPRMC,010837.000,A,3723.1458,N,12636.9225,E,31.0,185.2,290725,,*38
$GPRMC,010838.000,A,3723.1376,N,12636.9224,E,31.0,185.2,290725,,*3D
$GPRMC,010839.000,A,3723.1294,N,12636.9222,E,31.0,185.2,290725,,*37
$GPRMC,010840.000,A,3723.1213,N,12636.9220,E,31.0,185.2,290725,,*34
$GPRMC,010841.000,A,3723.1131,N,12636.9219,E,31.0,185.2,290725,,*3C
$GPRMC,010842.000,A,3723.1049,N,12636.9217,E,31.0,185.2,290725,,*3F
$GPRMC,010843.000,A,3723.0967,N,12636.9216,E,31.0,185.2,290725,,*3B
$GPRMC,010844.000,A,3723.0885,N,12636.9214,E,31.0,185.2,290725,,*33
$GPRMC,010845.000,A,3723.0803,N,12636.9213,E,31.0,185.2,290725,,*3B
$GPRMC,010846.000,A,3723.0721,N,12636.9211,E,31.0,185.2,290725,,*35
$GPRMC,010847.000,A,3723.0640,N,12636.9210,E,31.0,185.2,290725,,*33
$GPRMC,010848.000,A,3723.0558,N,12636.9208,E,31.0,185.2,290725,,*3F
$GPRMC,010849.000,A,3723.0476,N,12636.9207,E,31.0,185.3,290725,,*3D
$GPRMC,010850.000,A,3723.0394,N,12636.9205,E,31.0,185.3,290725,,*3C
$GPRMC,010851.000,A,3723.0312,N,12636.9204,E,31.0,185.3,290725,,*32
$GPRMC,010852.000,A,3723.0230,N,12636.9202,E,31.0,185.3,290725,,*36
$GPRMC,010853.000,A,3723.0148,N,12636.9201,E,31.0,185.3,290725,,*38
$GPRMC,010854.000,A,3723.0067,N,12636.9199,E,31.0,185.3,290725,,*31
$GPRMC,010855.000,A,3722.9985,N,12636.9197,E,31.0,185.3,290725,,*33
$GPRMC,010856.000,A,3722.9903,N,12636.9196,E,31.0,185.3,290725,,*3F
$GPRMC,010857.000,A,3722.9821,N,12636.9194,E,31.0,185.3,290725,,*3D
$GPRMC,010858.000,A,3722.9739,N,12636.9193,E,31.0,185.3,290725,,*33
$GPRMC,010859.000,A,3722.9657,N,12636.9191,E,31.0,185.3,290725,,*39
$GPRMC,010900.000,A,3722.9575,N,12636.9190,E,31.0,185.3,290725,,*36
$GPRMC,010901.000,A,3722.9494,N,12636.9188,E,31.0,185.3,290725,,*30
$GPRMC,010902.000,A,3722.9412,N,12636.9187,E,31.0,185.3,290725,,*32
$GPRMC,010903.000,A,3722.9330,N,12636.9185,E,31.0,185.3,290725,,*36
$GPRMC,010904.000,A,3722.9248,N,12636.9184,E,31.0,185.3,290725,,*3E
$GPRMC,010905.000,A,3722.9166,N,12636.9182,E,31.0,185.3,290725,,*36
$GPRMC,010906.000,A,3722.9084,N,12636.9181,E,31.0,185.3,290725,,*3B
$GPRMC,010907.000,A,3722.9002,N,12636.9179,E,31.0,185.3,290725,,*33
$GPRMC,010908.000,A,3722.8920,N,12636.9177,E,31.0,185.3,290725,,*3A
$GPRMC,010909.000,A,3722.8839,N,12636.9176,E,31.0,185.3,290725,,*33
$GPRMC,010910.000,A,3722.8757,N,12636.9174,E,31.0,185.4,290725,,*39
$GPRMC,010911.000,A,3722.8675,N,12636.9173,E,31.0,185.4,290725,,*3E
$GPRMC,010912.000,A,3722.8593,N,12636.9171,E,31.0,185.4,290725,,*34
$GPRMC,010913.000,A,3722.8511,N,12636.9170,E,31.0,185.4,290725,,*3E
$GPRMC,010914.000,A,3722.8429,N,12636.9168,E,31.0,185.4,290725,,*3A
$GPRMC,010915.000,A,3722.8347,N,12636.9167,E,31.0,185.4,290725,,*3B
$GPRMC,010916.000,A,3722.8266,N,12636.9165,E,31.0,185.4,290725,,*38
$GPRMC,010917.000,A,3722.8184,N,12636.9164,E,31.1,185.4,290725,,*36
$GPRMC,010918.000,A,3722.8102,N,12636.9162,E,31.1,185.4,290725,,*31
$GPRMC,010919.000,A,3722.8020,N,12636.9161,E,31.1,185.4,290725,,*32
$GPRMC,010920.000,A,3722.7938,N,12636.9159,E,31.1,185.4,290725,,*3C
$GPRMC,010921.000,A,3722.7856,N,12636.9157,E,31.1,185.4,290725,,*3A
$GPRMC,010922.000,A,3722.7774,N,12636.9156,E,31.1,185.4,290725,,*37
$GPRMC,010923.000,A,3722.7693,N,12636.9154,E,31.1,185.4,290725,,*3C
$GPRMC,010924.000,A,3722.7611,N,12636.9153,E,31.1,185.4,290725,,*36
$GPRMC,010925.000,A,3722.7529,N,12636.9151,E,31.1,185.4,290725,,*3D
$GPRMC,010926.000,A,3722.7447,N,12636.9150,E,31.1,185.4,290725,,*36
$GPRMC,010927.000,A,3722.7365,N,12636.9148,E,31.1,185.4,290725,,*39
$GPRMC,010928.000,A,3722.7283,N,12636.9147,E,31.1,185.4,290725,,*30
$GPRMC,010929.000,A,3722.7201,N,12636.9145,E,31.1,185.4,290725,,*39
$GPRMC,010930.000,A,3722.7120,N,12636.9144,E,31.1,185.4,290725,,*30
$GPRMC,010931.000,A,3722.7038,N,12636.9142,E,31.1,185.4,290725,,*3F
$GPRMC,010932.000,A,3722.6956,N,12636.9141,E,31.1,185.4,290725,,*3F
$GPRMC,010933.000,A,3722.6874,N,12636.9139,E,31.1,185.5,290725,,*31
$GPRMC,010934.000,A,3722.6792,N,12636.9137,E,31.1,185.5,290725,,*3F
$GPRMC,010935.000,A,3722.6710,N,12636.9136,E,31.1,185.5,290725,,*35
$GPRMC,010936.000,A,3722.6628,N,12636.9134,E,31.1,185.5,290725,,*3E
$GPRMC,010937.000,A,3722.6547,N,12636.9133,E,31.1,185.5,290725,,*32
$GPRMC,010938.000,A,3722.6465,N,12636.9131,E,31.1,185.5,290725,,*3E
$GPRMC,010939.000,A,3722.6383,N,12636.9130,E,31.1,185.5,290725,,*31
$GPRMC,010940.000,A,3722.6301,N,12636.9128,E,31.1,185.5,290725,,*3C
$GPRMC,010941.000,A,3722.6219,N,12636.9127,E,31.1,185.5,290725,,*3A
$GPRMC,010942.000,A,3722.6137,N,12636.9125,E,31.1,185.5,290725,,*34
$GPRMC,010943.000,A,3722.6055,N,12636.9124,E,31.1,185.5,290725,,*31
$GPRMC,010944.000,A,3722.5974,N,12636.9122,E,31.1,185.5,290725,,*39
$GPRMC,010945.000,A,3722.5892,N,12636.9121,E,31.1,185.5,290725,,*32
$GPRMC,010946.000,A,3722.5810,N,12636.9119,E,31.1,185.5,290725,,*30
$GPRMC,010947.000,A,3722.5728,N,12636.9117,E,31.1,185.5,290725,,*3B
$GPRMC,010948.000,A,3722.5646,N,12636.9116,E,31.1,185.5,290725,,*3C
$GPRMC,010949.000,A,3722.5564,N,12636.9114,E,31.1,185.5,290725,,*3C
$GPRMC,010950.000,A,3722.5482,N,12636.9113,E,31.1,185.5,290725,,*3A
$GPRMC,010951.000,A,3722.5400,N,12636.9111,E,31.1,185.5,290725,,*33
$GPRMC,010952.000,A,3722.5319,N,12636.9110,E,31.1,185.5,290725,,*3E
$GPRMC,010953.000,A,3722.5237,N,12636.9108,E,31.1,185.5,290725,,*3B
$GPRMC,010954.000,A,3722.5155,N,12636.9107,E,31.1,185.5,290725,,*34
$GPRMC,010955.000,A,3722.5073,N,12636.9105,E,31.1,185.5,290725,,*32
$GPRMC,010956.000,A,3722.4991,N,12636.9104,E,31.1,185.5,290725,,*34
$GPRMC,010957.000,A,3722.4909,N,12636.9102,E,31.2,185.5,290725,,*31
$GPRMC,010958.000,A,3722.4827,N,12636.9101,E,31.2,185.6,290725,,*33
$GPRMC,010959.000,A,3722.4746,N,12636.9099,E,31.2,185.6,290725,,*3A
$GPRMC,011000.000,A,3722.4664,N,12636.9097,E,31.2,185.6,290725,,*31
$GPRMC,011001.000,A,3722.4582,N,12636.9096,E,31.2,185.6,290725,,*3A
$GPRMC,011002.000,A,3722.4500,N,12636.9094,E,31.2,185.6,290725,,*31
$GPRMC,011003.000,A,3722.4418,N,12636.9093,E,31.2,185.6,290725,,*3F
$GPRMC,011004.000,A,3722.4336,N,12636.9091,E,31.2,185.6,290725,,*31
$GPRMC,011005.000,A,3722.4254,N,12636.9090,E,31.2,185.6,290725,,*34
$GPRMC,011006.000,A,3722.4173,N,12636.9088,E,31.2,185.6,290725,,*38
$GPRMC,011007.000,A,3722.4091,N,12636.9087,E,31.2,185.6,290725,,*3B
$GPRMC,011008.000,A,3722.4009,N,12636.9085,E,31.2,185.6,290725,,*37
$GPRMC,011009.000,A,3722.3927,N,12636.9084,E,31.2,185.6,290725,,*35
$GPRMC,011010.000,A,3722.3845,N,12636.9082,E,31.2,185.6,290725,,*3E
$GPRMC,011011.000,A,3722.3763,N,12636.9081,E,31.2,185.6,290725,,*37
$GPRMC,011012.000,A,3722.3681,N,12636.9079,E,31.2,185.6,290725,,*3E
$GPRMC,011013.000,A,3722.3600,N,12636.9078,E,31.2,185.6,290725,,*37
$GPRMC,011014.000,A,3722.3518,N,12636.9076,E,31.2,185.6,290725,,*34
$GPRMC,011015.000,A,3722.3436,N,12636.9074,E,31.2,185.6,290725,,*3A
$GPRMC,011016.000,A,3722.3354,N,12636.9073,E,31.2,185.6,290725,,*3D
$GPRMC,011017.000,A,3722.3272,N,12636.9071,E,31.2,185.6,290725,,*3B
$GPRMC,011018.000,A,3722.3190,N,12636.9070,E,31.2,185.6,290725,,*3A
$GPRMC,011019.000,A,3722.3108,N,12636.9068,E,31.2,185.6,290725,,*33
$GPRMC,011020.000,A,3722.3027,N,12636.9067,E,31.2,185.6,290725,,*3A
$GPRMC,011021.000,A,3722.2945,N,12636.9065,E,31.2,185.6,290725,,*35
$GPRMC,011022.000,A,3722.2863,N,12636.9064,E,31.2,185.6,290725,,*32
$GPRMC,011023.000,A,3722.2781,N,12636.9062,E,31.2,185.6,290725,,*36
$GPRMC,011024.000,A,3722.2699,N,12636.9061,E,31.2,185.6,290725,,*3A
$GPRMC,011025.000,A,3722.2617,N,12636.9059,E,31.2,185.6,290725,,*36
$GPRMC,011026.000,A,3722.2535,N,12636.9058,E,31.2,185.6,290725,,*37
$GPRMC,011027.000,A,3722.2454,N,12636.9056,E,31.2,185.6,290725,,*3E
$GPRMC,011028.000,A,3722.2372,N,12636.9054,E,31.2,185.7,290725,,*31
$GPRMC,011029.000,A,3722.2290,N,12636.9053,E,31.2,185.7,290725,,*3A
$GPRMC,011030.000,A,3722.2208,N,12636.9051,E,31.2,185.7,290725,,*31
$GPRMC,011031.000,A,3722.2126,N,12636.9050,E,31.2,185.7,290725,,*3E
$GPRMC,011032.000,A,3722.2044,N,12636.9048,E,31.2,185.7,290725,,*31
$GPRMC,011033.000,A,3722.1962,N,12636.9047,E,31.2,185.7,290725,,*31
$GPRMC,011034.000,A,3722.1880,N,12636.9045,E,31.2,185.7,290725,,*39
$GPRMC,011035.000,A,3722.1799,N,12636.9044,E,31.2,185.7,290725,,*3E
$GPRMC,011036.000,A,3722.1717,N,12636.9042,E,31.2,185.7,290725,,*3D
$GPRMC,011037.000,A,3722.1635,N,12636.9041,E,31.2,185.7,290725,,*3E
$GPRMC,011038.000,A,3722.1553,N,12636.9039,E,31.2,185.7,290725,,*3D
$GPRMC,011039.000,A,3722.1471,N,12636.9038,E,31.3,185.7,290725,,*3D
$GPRMC,011040.000,A,3722.1389,N,12636.9036,E,31.3,185.7,290725,,*3D
$GPRMC,011041.000,A,3722.1307,N,12636.9034,E,31.3,185.7,290725,,*38
$GPRMC,011042.000,A,3722.1226,N,12636.9033,E,31.3,185.7,290725,,*3E
$GPRMC,011043.000,A,3722.1144,N,12636.9031,E,31.3,185.7,290725,,*3A
$GPRMC,011044.000,A,3722.1062,N,12636.9030,E,31.3,185.7,290725,,*39
$GPRMC,011045.000,A,3722.0980,N,12636.9028,E,31.3,185.7,290725,,*35
$GPRMC,011046.000,A,3722.0898,N,12636.9027,E,31.3,185.7,290725,,*31
$GPRMC,011047.000,A,3722.0816,N,12636.9025,E,31.3,185.7,290725,,*34
$GPRMC,011048.000,A,3722.0734,N,12636.9024,E,31.3,185.7,290725,,*35
$GPRMC,011049.000,A,3722.0653,N,12636.9022,E,31.3,185.7,290725,,*32
$GPRMC,011050.000,A,3722.0571,N,12636.9021,E,31.3,185.7,290725,,*3A
$GPRMC,011051.000,A,3722.0489,N,12636.9019,E,31.3,185.7,290725,,*36
$GPRMC,011052.000,A,3722.0407,N,12636.9018,E,31.3,185.7,290725,,*32
$GPRMC,011053.000,A,3722.0325,N,12636.9016,E,31.3,185.7,290725,,*3A
$GPRMC,011054.000,A,3722.0243,N,12636.9014,E,31.3,185.7,290725,,*3E
$GPRMC,011055.000,A,3722.0161,N,12636.9013,E,31.3,185.7,290725,,*3B
$GPRMC,011056.000,A,3722.0080,N,12636.9011,E,31.3,185.7,290725,,*34
$GPRMC,011057.000,A,3721.9998,N,12636.9010,E,31.3,185.7,290725,,*3E
$GPRMC,011058.000,A,3721.9916,N,12636.9008,E,31.3,185.7,290725,,*3E
$GPRMC,011059.000,A,3721.9834,N,12636.9007,E,31.3,185.7,290725,,*31
$GPRMC,011100.000,A,3721.9752,N,12636.9005,E,31.3,185.7,290725,,*31
$GPRMC,011101.000,A,3721.9670,N,12636.9004,E,31.3,185.7,290725,,*30
$GPRMC,011102.000,A,3721.9588,N,12636.9002,E,31.3,185.7,290725,,*31
$GPRMC,011103.000,A,3721.9507,N,12636.9001,E,31.3,185.7,290725,,*34
$GPRMC,011104.000,A,3721.9425,N,12636.8999,E,31.3,185.8,290725,,*34
$GPRMC,011105.000,A,3721.9343,N,12636.8998,E,31.3,185.8,290725,,*33
$GPRMC,011106.000,A,3721.9261,N,12636.8996,E,31.3,185.8,290725,,*3F
$GPRMC,011107.000,A,3721.9179,N,12636.8994,E,31.3,185.8,290725,,*36
$GPRMC,011108.000,A,3721.9097,N,12636.8993,E,31.3,185.8,290725,,*3F
$GPRMC,011109.000,A,3721.9015,N,12636.8991,E,31.3,185.8,290725,,*36
$GPRMC,011110.000,A,3721.8934,N,12636.8990,E,31.3,185.8,290725,,*34
$GPRMC,011111.000,A,3721.8852,N,12636.8988,E,31.3,185.8,290725,,*3D
$GPRMC,011112.000,A,3721.8770,N,12636.8987,E,31.3,185.8,290725,,*3E
$GPRMC,011113.000,A,3721.8688,N,12636.8985,E,31.3,185.8,290725,,*3B
$GPRMC,011114.000,A,3721.8606,N,12636.8984,E,31.3,185.8,290725,,*3B
$GPRMC,011115.000,A,3721.8524,N,12636.8982,E,31.3,185.8,290725,,*3F
$GPRMC,011116.000,A,3721.8442,N,12636.8981,E,31.3,185.8,290725,,*3E
$GPRMC,011117.000,A,3721.8360,N,12636.8979,E,31.3,185.8,290725,,*3F
$GPRMC,011118.000,A,3721.8279,N,12636.8978,E,31.3,185.8,290725,,*38
$GPRMC,011119.000,A,3721.8197,N,12636.8976,E,31.3,185.8,290725,,*34
$GPRMC,011120.000,A,3721.8115,N,12636.8974,E,31.3,185.8,290725,,*36
$GPRMC,011121.000,A,3721.8033,N,12636.8973,E,31.3,185.8,290725,,*35
$GPRMC,011122.000,A,3721.7951,N,12636.8971,E,31.4,185.8,290725,,*31
$GPRMC,011123.000,A,3721.7869,N,12636.8970,E,31.4,185.8,290725,,*3B
$GPRMC,011124.000,A,3721.7787,N,12636.8968,E,31.4,185.8,290725,,*3A
$GPRMC,011125.000,A,3721.7706,N,12636.8967,E,31.4,185.8,290725,,*3D
$GPRMC,011126.000,A,3721.7624,N,12636.8965,E,31.4,185.8,290725,,*3D
$GPRMC,011127.000,A,3721.7542,N,12636.8964,E,31.4,185.8,290725,,*3E
$GPRMC,011128.000,A,3721.7460,N,12636.8962,E,31.4,185.8,290725,,*36
$GPRMC,011129.000,A,3721.7378,N,12636.8961,E,31.4,185.8,290725,,*3A
$GPRMC,011130.000,A,3721.7296,N,12636.8959,E,31.4,185.8,290725,,*38
$GPRMC,011131.000,A,3721.7214,N,12636.8958,E,31.4,185.8,290725,,*32
$GPRMC,011132.000,A,3721.7133,N,12636.8956,E,31.4,185.8,290725,,*39
$GPRMC,011133.000,A,3721.7051,N,12636.8955,E,31.4,185.8,290725,,*3E
$GPRMC,011134.000,A,3721.6969,N,12636.8953,E,31.4,185.8,290725,,*3C
$GPRMC,011135.000,A,3721.6887,N,12636.8951,E,31.4,185.8,290725,,*3E
$GPRMC,011136.000,A,3721.6805,N,12636.8950,E,31.4,185.8,290725,,*36
$GPRMC,011137.000,A,3721.6723,N,12636.8948,E,31.4,185.8,290725,,*35
$GPRMC,011138.000,A,3721.6641,N,12636.8947,E,31.4,185.8,290725,,*30
$GPRMC,011139.000,A,3721.6560,N,12636.8945,E,31.4,185.8,290725,,*33
$GPRMC,011140.000,A,3721.6478,N,12636.8944,E,31.4,185.8,290725,,*34
$GPRMC,011141.000,A,3721.6396,N,12636.8942,E,31.4,185.8,290725,,*34
$GPRMC,011142.000,A,3721.6314,N,12636.8941,E,31.4,185.8,290725,,*3E
$GPRMC,011143.000,A,3721.6232,N,12636.8939,E,31.4,185.8,290725,,*35
$GPRMC,011144.000,A,3721.6150,N,12636.8938,E,31.4,185.8,290725,,*34
$GPRMC,011145.000,A,3721.6068,N,12636.8936,E,31.4,185.8,290725,,*31
$GPRMC,011146.000,A,3721.5987,N,12636.8935,E,31.4,185.8,290725,,*3A
$GPRMC,011147.000,A,3721.5905,N,12636.8933,E,31.4,185.8,290725,,*37
$GPRMC,011148.000,A,3721.5823,N,12636.8931,E,31.4,185.8,290725,,*3F
$GPRMC,011149.000,A,3721.5741,N,12636.8930,E,31.4,185.8,290725,,*34
$GPRMC,011150.000,A,3721.5659,N,12636.8928,E,31.4,185.8,290725,,*3D
$GPRMC,011151.000,A,3721.5577,N,12636.8927,E,31.4,185.8,290725,,*3C
$GPRMC,011152.000,A,3721.5495,N,12636.8925,E,31.4,185.8,290725,,*30
$GPRMC,011153.000,A,3721.5414,N,12636.8924,E,31.4,185.8,290725,,*39
$GPRMC,011154.000,A,3721.5332,N,12636.8922,E,31.4,185.8,290725,,*3B
$GPRMC,011155.000,A,3721.5250,N,12636.8921,E,31.4,185.8,290725,,*3C
$GPRMC,011156.000,A,3721.5168,N,12636.8919,E,31.4,185.8,290725,,*3C
$GPRMC,011157.000,A,3721.5086,N,12636.8918,E,31.4,185.9,290725,,*3C
$GPRMC,011158.000,A,3721.5004,N,12636.8916,E,31.4,185.9,290725,,*37
$GPRMC,011159.000,A,3721.4922,N,12636.8915,E,31.4,185.9,290725,,*39
$GPRMC,011200.000,A,3721.4840,N,12636.8913,E,31.4,185.9,290725,,*35
$GPRMC,011201.000,A,3721.4759,N,12636.8911,E,31.4,185.9,290725,,*31
$GPRMC,011202.000,A,3721.4677,N,12636.8910,E,31.4,185.9,290725,,*3E
$GPRMC,011203.000,A,3721.4595,N,12636.8908,E,31.4,185.9,290725,,*39
$GPRMC,011204.000,A,3721.4513,N,12636.8907,E,31.4,185.9,290725,,*3F
$GPRMC,011205.000,A,3721.4431,N,12636.8905,E,31.4,185.9,290725,,*3D
$GPRMC,011206.000,A,3721.4349,N,12636.8904,E,31.5,185.9,290725,,*36
$GPRMC,011207.000,A,3721.4267,N,12636.8902,E,31.5,185.9,290725,,*3C
$GPRMC,011208.000,A,3721.4186,N,12636.8901,E,31.5,185.9,290725,,*3C
$GPRMC,011209.000,A,3721.4104,N,12636.8899,E,31.5,185.9,290725,,*37
$GPRMC,011210.000,A,3721.4022,N,12636.8898,E,31.5,185.9,290725,,*3B
$GPRMC,011211.000,A,3721.3940,N,12636.8896,E,31.5,185.9,290725,,*3E
$GPRMC,011212.000,A,3721.3858,N,12636.8895,E,31.5,185.9,290725,,*36
$GPRMC,011213.000,A,3721.3776,N,12636.8893,E,31.5,185.9,290725,,*32
$GPRMC,011214.000,A,3721.3694,N,12636.8891,E,31.5,185.9,290725,,*3A
$GPRMC,011215.000,A,3721.3613,N,12636.8890,E,31.5,185.9,290725,,*35
$GPRMC,011216.000,A,3721.3531,N,12636.8888,E,31.5,185.9,290725,,*3C
$GPRMC,011217.000,A,3721.3449,N,12636.8887,E,31.5,185.9,290725,,*3C
$GPRMC,011218.000,A,3721.3367,N,12636.8885,E,31.5,185.9,290725,,*3A
$GPRMC,011219.000,A,3721.3285,N,12636.8884,E,31.5,185.9,290725,,*37
$GPRMC,011220.000,A,3721.3203,N,12636.8882,E,31.5,185.9,290725,,*35
$GPRMC,011221.000,A,3721.3121,N,12636.8881,E,31.5,185.9,290725,,*34
$GPRMC,011222.000,A,3721.3040,N,12636.8879,E,31.5,185.9,290725,,*36
$GPRMC,011223.000,A,3721.2958,N,12636.8878,E,31.5,185.9,290725,,*37
$GPRMC,011224.000,A,3721.2876,N,12636.8876,E,31.5,185.9,290725,,*33
$GPRMC,011225.000,A,3721.2794,N,12636.8875,E,31.5,185.9,290725,,*32
$GPRMC,011226.000,A,3721.2712,N,12636.8873,E,31.5,185.9,290725,,*39
$GPRMC,011227.000,A,3721.2630,N,12636.8871,E,31.5,185.9,290725,,*3B
$GPRMC,011228.000,A,3721.2548,N,12636.8870,E,31.5,185.9,290725,,*39
$GPRMC,011229.000,A,3721.2467,N,12636.8868,E,31.5,185.9,290725,,*3D
$GPRMC,011230.000,A,3721.2385,N,12636.8867,E,31.5,185.9,290725,,*31
$GPRMC,011231.000,A,3721.2303,N,12636.8865,E,31.5,185.9,290725,,*3C
$GPRMC,011232.000,A,3721.2221,N,12636.8864,E,31.5,185.9,290725,,*3F
$GPRMC,011233.000,A,3721.2139,N,12636.8862,E,31.5,185.9,290725,,*32
$GPRMC,011234.000,A,3721.2057,N,12636.8861,E,31.5,185.9,290725,,*3F
$GPRMC,011235.000,A,3721.1975,N,12636.8859,E,31.5,185.9,290725,,*3F
$GPRMC,011236.000,A,3721.1894,N,12636.8858,E,31.5,185.9,290725,,*33
$GPRMC,011237.000,A,3721.1812,N,12636.8856,E,31.5,185.9,290725,,*32
$GPRMC,011238.000,A,3721.1730,N,12636.8855,E,31.5,185.9,290725,,*31
$GPRMC,011239.000,A,3721.1648,N,12636.8853,E,31.5,185.9,290725,,*38
$GPRMC,011240.000,A,3721.1566,N,12636.8851,E,31.5,185.9,290725,,*3B
$GPRMC,011241.000,A,3721.1484,N,12636.8850,E,31.5,185.9,290725,,*36
$GPRMC,011242.000,A,3721.1402,N,12636.8848,E,31.5,185.9,290725,,*32
$GPRMC,011243.000,A,3721.1321,N,12636.8847,E,31.5,185.9,290725,,*3A
$GPRMC,011244.000,A,3721.1239,N,12636.8845,E,31.5,185.9,290725,,*37
$GPRMC,011245.000,A,3721.1157,N,12636.8844,E,31.5,185.9,290725,,*3C
$GPRMC,011246.000,A,3721.1075,N,12636.8842,E,31.5,185.9,290725,,*38
$GPRMC,011247.000,A,3721.0993,N,12636.8841,E,31.5,185.9,290725,,*3A
$GPRMC,011248.000,A,3721.0911,N,12636.8839,E,31.5,185.9,290725,,*30
$GPRMC,011249.000,A,3721.0829,N,12636.8838,E,31.5,185.9,290725,,*3A
$GPRMC,011250.000,A,3721.0747,N,12636.8836,E,31.5,185.9,290725,,*3B
$GPRMC,011251.000,A,3721.0666,N,12636.8835,E,31.5,185.9,290725,,*3B
$GPRMC,011252.000,A,3721.0584,N,12636.8833,E,31.6,185.9,290725,,*32
$GPRMC,011253.000,A,3721.0502,N,12636.8832,E,31.6,185.9,290725,,*3C
$GPRMC,011254.000,A,3721.0420,N,12636.8830,E,31.6,185.9,290725,,*38
$GPRMC,011255.000,A,3721.0338,N,12636.8828,E,31.6,185.9,290725,,*3E
$GPRMC,011256.000,A,3721.0256,N,12636.8827,E,31.6,185.9,290725,,*3B
$GPRMC,011257.000,A,3721.0174,N,12636.8825,E,31.6,185.9,290725,,*3B
$GPRMC,011258.000,A,3721.0093,N,12636.8824,E,31.6,185.9,290725,,*3D
$GPRMC,011259.000,A,3721.0011,N,12636.8822,E,31.6,185.9,290725,,*30
$GPRMC,011300.000,A,3720.9929,N,12636.8821,E,31.6,185.9,290725,,*34
$GPRMC,011301.000,A,3720.9847,N,12636.8819,E,31.6,185.9,290725,,*37
$GPRMC,011302.000,A,3720.9765,N,12636.8818,E,31.6,185.9,290725,,*3A
$GPRMC,011303.000,A,3720.9683,N,12636.8816,E,31.6,185.9,290725,,*3C
$GPRMC,011304.000,A,3720.9601,N,12636.8815,E,31.6,185.9,290725,,*32
$GPRMC,011305.000,A,3720.9520,N,12636.8813,E,31.6,185.9,290725,,*35
$GPRMC,011306.000,A,3720.9438,N,12636.8812,E,31.6,185.9,290725,,*3F
$GPRMC,011307.000,A,3720.9356,N,12636.8810,E,31.6,185.9,290725,,*33
$GPRMC,011308.000,A,3720.9274,N,12636.8808,E,31.6,185.9,290725,,*34
$GPRMC,011309.000,A,3720.9192,N,12636.8807,E,31.6,185.9,290725,,*31
$GPRMC,011310.000,A,3720.9110,N,12636.8805,E,31.6,185.9,290725,,*31
$GPRMC,011311.000,A,3720.9028,N,12636.8804,E,31.6,185.9,290725,,*3B
$GPRMC,011312.000,A,3720.8947,N,12636.8802,E,31.6,185.9,290725,,*3F
$GPRMC,011313.000,A,3720.8865,N,12636.8801,E,31.6,185.9,290725,,*3C
$GPRMC,011314.000,A,3720.8783,N,12636.8799,E,31.6,185.9,290725,,*32
$GPRMC,011315.000,A,3720.8701,N,12636.8798,E,31.6,185.9,290725,,*38
$GPRMC,011316.000,A,3720.8619,N,12636.8796,E,31.6,185.9,290725,,*3D
$GPRMC,011317.000,A,3720.8537,N,12636.8795,E,31.6,185.9,290725,,*30
$GPRMC,011318.000,A,3720.8455,N,12636.8793,E,31.6,185.9,290725,,*3C
$GPRMC,011319.000,A,3720.8374,N,12636.8792,E,31.6,185.9,290725,,*38
$GPRMC,011320.000,A,3720.8292,N,12636.8790,E,31.6,185.9,290725,,*39
$GPRMC,011321.000,A,3720.8210,N,12636.8788,E,31.6,185.9,290725,,*3B
$GPRMC,011322.000,A,3720.8128,N,12636.8787,E,31.6,185.9,290725,,*3F
$GPRMC,011323.000,A,3720.8046,N,12636.8785,E,31.6,185.9,290725,,*35
$GPRMC,011324.000,A,3720.7964,N,12636.8784,E,31.6,185.9,290725,,*35
$GPRMC,011325.000,A,3720.7882,N,12636.8782,E,31.6,185.9,290725,,*3B
$GPRMC,011326.000,A,3720.7801,N,12636.8781,E,31.6,185.9,290725,,*30
$GPRMC,011327.000,A,3720.7719,N,12636.8779,E,31.6,185.9,290725,,*30
$GPRMC,011328.000,A,3720.7637,N,12636.8778,E,31.6,185.9,290725,,*33
$GPRMC,011329.000,A,3720.7555,N,12636.8776,E,31.6,185.9,290725,,*3B
$GPRMC,011330.000,A,3720.7473,N,12636.8775,E,31.6,185.9,290725,,*35
$GPRMC,011331.000,A,3720.7391,N,12636.8773,E,31.6,185.9,290725,,*39
$GPRMC,011332.000,A,3720.7309,N,12636.8772,E,31.6,185.9,290725,,*3A
$GPRMC,011333.000,A,3720.7227,N,12636.8770,E,31.6,185.9,290725,,*34
$GPRMC,011334.000,A,3720.7146,N,12636.8768,E,31.6,185.9,290725,,*3E
$GPRMC,011335.000,A,3720.7064,N,12636.8767,E,31.6,185.9,290725,,*31
$GPRMC,011336.000,A,3720.6982,N,12636.8765,E,31.6,185.9,290725,,*30
$GPRMC,011337.000,A,3720.6900,N,12636.8764,E,31.6,185.9,290725,,*3A
$GPRMC,011338.000,A,3720.6818,N,12636.8762,E,31.6,185.9,290725,,*3B
$GPRMC,011339.000,A,3720.6736,N,12636.8761,E,31.6,185.9,290725,,*3A
$GPRMC,011340.000,A,3720.6654,N,12636.8759,E,31.6,185.9,290725,,*3A
$GPRMC,011341.000,A,3720.6573,N,12636.8758,E,31.7,185.9,290725,,*3D
$GPRMC,011342.000,A,3720.6491,N,12636.8756,E,31.7,185.9,290725,,*3D
$GPRMC,011343.000,A,3720.6409,N,12636.8755,E,31.7,185.9,290725,,*3E
$GPRMC,011344.000,A,3720.6327,N,12636.8753,E,31.7,185.9,290725,,*34
$GPRMC,011345.000,A,3720.6245,N,12636.8752,E,31.7,185.9,290725,,*31
$GPRMC,011346.000,A,3720.6163,N,12636.8750,E,31.7,185.9,290725,,*37
$GPRMC,011347.000,A,3720.6081,N,12636.8748,E,31.7,185.9,290725,,*32
$GPRMC,011348.000,A,3720.6000,N,12636.8747,E,31.7,185.9,290725,,*3B
$GPRMC,011349.000,A,3720.5918,N,12636.8745,E,31.7,185.9,290725,,*3B
$GPRMC,011350.000,A,3720.5836,N,12636.8744,E,31.7,185.9,290725,,*3F
$GPRMC,011351.000,A,3720.5754,N,12636.8742,E,31.7,185.9,290725,,*33
$GPRMC,011352.000,A,3720.5672,N,12636.8741,E,31.7,185.9,290725,,*36
$GPRMC,011353.000,A,3720.5590,N,12636.8739,E,31.7,185.9,290725,,*37
$GPRMC,011354.000,A,3720.5508,N,12636.8738,E,31.7,185.9,290725,,*30
$GPRMC,011355.000,A,3720.5427,N,12636.8736,E,31.7,185.9,290725,,*33
$GPRMC,011356.000,A,3720.5345,N,12636.8735,E,31.7,185.9,290725,,*30
$GPRMC,011357.000,A,3720.5263,N,12636.8733,E,31.7,185.9,290725,,*32
$GPRMC,011358.000,A,3720.5181,N,12636.8732,E,31.7,185.9,290725,,*33
$GPRMC,011359.000,A,3720.5099,N,12636.8730,E,31.7,185.9,290725,,*38
$GPRMC,011400.000,A,3720.5017,N,12636.8729,E,31.7,185.9,290725,,*3D
$GPRMC,011401.000,A,3720.4935,N,12636.8727,E,31.7,185.9,290725,,*3A
$GPRMC,011402.000,A,3720.4854,N,12636.8725,E,31.7,185.9,290725,,*3D
$GPRMC,011403.000,A,3720.4772,N,12636.8724,E,31.7,185.9,290725,,*36
$GPRMC,011404.000,A,3720.4690,N,12636.8722,E,31.7,185.9,290725,,*3A
$GPRMC,011405.000,A,3720.4608,N,12636.8721,E,31.7,185.9,290725,,*39
$GPRMC,011406.000,A,3720.4526,N,12636.8719,E,31.7,185.9,290725,,*3E
$GPRMC,011407.000,A,3720.4444,N,12636.8718,E,31.7,185.9,290725,,*3B
$GPRMC,011408.000,A,3720.4362,N,12636.8716,E,31.7,185.9,290725,,*39
$GPRMC,011409.000,A,3720.4281,N,12636.8715,E,31.7,185.9,290725,,*37
$GPRMC,011410.000,A,3720.4199,N,12636.8713,E,31.7,185.9,290725,,*33
$GPRMC,011411.000,A,3720.4117,N,12636.8712,E,31.7,185.9,290725,,*35
$GPRMC,011412.000,A,3720.4035,N,12636.8710,E,31.7,185.9,290725,,*35
$GPRMC,011413.000,A,3720.3953,N,12636.8709,E,31.7,185.9,290725,,*32
$GPRMC,011414.000,A,3720.3871,N,12636.8707,E,31.7,185.9,290725,,*3A
$GPRMC,011415.000,A,3720.3789,N,12636.8705,E,31.7,185.8,290725,,*30
$GPRMC,011416.000,A,3720.3707,N,12636.8704,E,31.7,185.8,290725,,*34
$GPRMC,011417.000,A,3720.3626,N,12636.8702,E,31.7,185.8,290725,,*31
$GPRMC,011418.000,A,3720.3544,N,12636.8701,E,31.7,185.8,290725,,*3A
$GPRMC,011419.000,A,3720.3462,N,12636.8699,E,31.7,185.8,290725,,*3E
$GPRMC,011420.000,A,3720.3380,N,12636.8698,E,31.7,185.8,290725,,*3E
$GPRMC,011421.000,A,3720.3298,N,12636.8696,E,31.7,185.8,290725,,*39
$GPRMC,011422.000,A,3720.3216,N,12636.8695,E,31.7,185.8,290725,,*3F
$GPRMC,011423.000,A,3720.3134,N,12636.8693,E,31.7,185.8,290725,,*3B
$GPRMC,011424.000,A,3720.3053,N,12636.8692,E,31.7,185.8,290725,,*3D
$GPRMC,011425.000,A,3720.2971,N,12636.8690,E,31.7,185.8,290725,,*36
$GPRMC,011426.000,A,3720.2889,N,12636.8689,E,31.7,185.8,290725,,*3B
$GPRMC,011427.000,A,3720.2807,N,12636.8687,E,31.7,185.8,290725,,*32
$GPRMC,011428.000,A,3720.2725,N,12636.8685,E,31.7,185.8,290725,,*30
$GPRMC,011429.000,A,3720.2643,N,12636.8684,E,31.7,185.8,290725,,*31
$GPRMC,011430.000,A,3720.2561,N,12636.8682,E,31.7,185.8,290725,,*3C
$GPRMC,011431.000,A,3720.2480,N,12636.8681,E,31.7,185.8,290725,,*30
$GPRMC,011432.000,A,3720.2398,N,12636.8679,E,31.8,185.8,290725,,*35
$GPRMC,011433.000,A,3720.2316,N,12636.8678,E,31.8,185.8,290725,,*33
$GPRMC,011434.000,A,3720.2234,N,12636.8676,E,31.8,185.8,290725,,*3B
$GPRMC,011435.000,A,3720.2152,N,12636.8675,E,31.8,185.8,290725,,*3A
$GPRMC,011436.000,A,3720.2070,N,12636.8673,E,31.8,185.8,290725,,*3E
$GPRMC,011437.000,A,3720.1988,N,12636.8672,E,31.8,185.8,290725,,*33
$GPRMC,011438.000,A,3720.1907,N,12636.8670,E,31.8,185.8,290725,,*39
$GPRMC,011439.000,A,3720.1825,N,12636.8669,E,31.8,185.8,290725,,*31
$GPRMC,011440.000,A,3720.1743,N,12636.8667,E,31.8,185.8,290725,,*3E
$GPRMC,011441.000,A,3720.1661,N,12636.8665,E,31.8,185.8,290725,,*3C
